[
  {
    "id": 1,
    "type": "School",
    "name": "Bakersfield College",
    "street": "1801 Panorama Dr",
    "abbrev":"CA",
    "state":"California",
    "city":"BakersField",
    "lat":35.4079184,
    "lon":-118.9740587,
    "phone": "(999) 999-9999",
    "fax": "(999) 999-9999",
    "waitTime": 15,
    "hours": {
      "weekdays": "9am - 5pm",
      "weekends": "9am - 5pm"
    }
  },


  {
    "id": 2,
    "type": "Urgent Care",
    "name": "Columbus Urgent Care",
    "street": "123 Main Street",
    "abbrev":"OH",
    "state":"Ohio",
    "city":"Columbus",
    "lat":35.4079226,
    "lon":-118.9718698,
    "phone": "(999) 999-9999",
    "fax": "(999) 999-9999",
    "waitTime": 15,
    "hours": {
      "weekdays": "9am - 5pm",
      "weekends": "9am - 5pm"
    }
  },
  {
    "id": 3,
    "type": "Hospital",
    "name": "Harrisburg Hospital",
    "street": "123 Main Street",
    "abbrev":"PA",
    "state":"Pennsylvania",
    "city":"Harrisburg",
    "lat":40.259865,
    "lon":-76.882230,
    "phone": "(999) 999-9999",
    "fax": "(999) 999-9999",
    "waitTime": 15,
    "hours": {
      "weekdays": "9am - 5pm",
      "weekends": "9am - 5pm"
    }
  },
  {
    "id": 4,
    "type": "Hospital",
    "name": "Nashville Hospital",
    "street": "123 Main Street",
    "abbrev":"TN",
    "state":"Tennessee",
    "city":"Nashville",
    "lat":36.167783,
    "lon":-86.778365,
    "phone": "(999) 999-9999",
    "fax": "(999) 999-9999",
    "waitTime": 15,
    "hours": {
      "weekdays": "9am - 5pm",
      "weekends": "9am - 5pm"
    }
  },
  {
    "id": 5,
    "type": "Physician Office",
    "name": "Charleston Medical Office",
    "street": "123 Main Street",
    "abbrev":"WV",
    "state":"West Virginia",
    "city":"Charleston",
    "lat":38.350195,
    "lon":-81.638989,
    "phone": "(999) 999-9999",
    "fax": "(999) 999-9999",
    "waitTime": 15,
    "hours": {
      "weekdays": "9am - 5pm",
      "weekends": "9am - 5pm"
    }
  }
]
